{"type":"FeatureCollection","crs":{"type":"name","properties":{"name":"urn:ogc:def:crs:OGC:1.3:CRS84"}},"features":[{"type":"Feature","properties":{"ID":0,"Name":"XFINITY Live! Philadelphia","Rating":"3","Num_Reviews":210,"Address":"1100 Pattison Ave","City":"Philadelphia","Field7":"PA","Field8":19148,"lat":39.90348144,"lon":-75.16928315},"geometry":{"type":"Point","coordinates":[-75.16928315,39.90348144]}},{"type":"Feature","properties":{"ID":1,"Name":"Fireside Tavern","Rating":"4","Num_Reviews":8,"Address":"2701 S Marshall St","City":"Philadelphia","Field7":"PA","Field8":19148,"lat":39.9149704,"lon":-75.15851593},"geometry":{"type":"Point","coordinates":[-75.15851593,39.9149704]}},{"type":"Feature","properties":{"ID":2,"Name":"Stogie Joe's Tavern","Rating":"4","Num_Reviews":168,"Address":"1801 E Passyunk Ave","City":"Philadelphia","Field7":"PA","Field8":19148,"lat":39.9274292,"lon":-75.1661835},"geometry":{"type":"Point","coordinates":[-75.1661835,39.9274292]}},{"type":"Feature","properties":{"ID":3,"Name":"the Pub on Passyunk East","Rating":"4","Num_Reviews":367,"Address":"1501 E Passyunk Ave","City":"Philadelphia","Field7":"PA","Field8":19147,"lat":39.93081665,"lon":-75.16201782},"geometry":{"type":"Point","coordinates":[-75.16201782,39.93081665]}},{"type":"Feature","properties":{"ID":4,"Name":"Devil's Den","Rating":"3.5","Num_Reviews":382,"Address":"1148 S 11th St","City":"Philadelphia","Field7":"PA","Field8":19147,"lat":39.93581009,"lon":-75.1620636},"geometry":{"type":"Point","coordinates":[-75.1620636,39.93581009]}},{"type":"Feature","properties":{"ID":5,"Name":"Catahoula","Rating":"4","Num_Reviews":227,"Address":"775 S Front St","City":"Philadelphia","Field7":"PA","Field8":19147,"lat":39.937879,"lon":-75.1445339},"geometry":{"type":"Point","coordinates":[-75.1445339,39.937879]}},{"type":"Feature","properties":{"ID":6,"Name":"Robert's Twi-Lite Lounge","Rating":"4","Num_Reviews":22,"Address":"700 S 20th St","City":"Philadelphia","Field7":"PA","Field8":19146,"lat":39.9438896,"lon":-75.1754532},"geometry":{"type":"Point","coordinates":[-75.1754532,39.9438896]}},{"type":"Feature","properties":{"ID":7,"Name":"Brauhaus Schmitz","Rating":"4","Num_Reviews":528,"Address":"718 South St","City":"Philadelphia","Field7":"PA","Field8":19147,"lat":39.942073,"lon":-75.154617},"geometry":{"type":"Point","coordinates":[-75.154617,39.942073]}},{"type":"Feature","properties":{"ID":8,"Name":"The Library Bar","Rating":"4","Num_Reviews":13,"Address":"The Rittenhouse Hotel","City":"Philadelphia","Field7":"PA","Field8":19103,"lat":39.949901,"lon":-75.173049},"geometry":{"type":"Point","coordinates":[-75.173049,39.949901]}},{"type":"Feature","properties":{"ID":9,"Name":"Ten Stone Bar & Restaurant","Rating":"3","Num_Reviews":247,"Address":"2063 South St","City":"Philadelphia","Field7":"PA","Field8":19146,"lat":39.94521,"lon":-75.1768},"geometry":{"type":"Point","coordinates":[-75.1768,39.94521]}},{"type":"Feature","properties":{"ID":10,"Name":"Fado Irish Pub & Restaurant","Rating":"3.5","Num_Reviews":339,"Address":"1500 Locust St","City":"Philadelphia","Field7":"PA","Field8":19102,"lat":39.9482307,"lon":-75.1666718},"geometry":{"type":"Point","coordinates":[-75.1666718,39.9482307]}},{"type":"Feature","properties":{"ID":11,"Name":"Black Sheep Pub & Restaurant","Rating":"3.5","Num_Reviews":236,"Address":"247 S 17th St","City":"Philadelphia","Field7":"PA","Field8":19103,"lat":39.9484024,"lon":-75.16925812},"geometry":{"type":"Point","coordinates":[-75.16925812,39.9484024]}},{"type":"Feature","properties":{"ID":12,"Name":"Misconduct Tavern","Rating":"3.5","Num_Reviews":284,"Address":"1511 Locust St","City":"Philadelphia","Field7":"PA","Field8":19102,"lat":39.948662,"lon":-75.166634},"geometry":{"type":"Point","coordinates":[-75.166634,39.948662]}},{"type":"Feature","properties":{"ID":13,"Name":"Zavino","Rating":"4","Num_Reviews":576,"Address":"112 S 13th St","City":"Philadelphia","Field7":"PA","Field8":19107,"lat":39.9499397,"lon":-75.1621704},"geometry":{"type":"Point","coordinates":[-75.1621704,39.9499397]}},{"type":"Feature","properties":{"ID":14,"Name":"Knock","Rating":"3.5","Num_Reviews":102,"Address":"225 S 12th St","City":"Philadelphia","Field7":"PA","Field8":19107,"lat":39.94790576,"lon":-75.16067728},"geometry":{"type":"Point","coordinates":[-75.16067728,39.94790576]}},{"type":"Feature","properties":{"ID":15,"Name":"XIX - Nineteen","Rating":"3.5","Num_Reviews":429,"Address":"200 S Broad St","City":"Philadelphia","Field7":"PA","Field8":19102,"lat":39.9490509,"lon":-75.1648483},"geometry":{"type":"Point","coordinates":[-75.1648483,39.9490509]}},{"type":"Feature","properties":{"ID":16,"Name":"ICandy","Rating":"3","Num_Reviews":62,"Address":"254 S 12th St","City":"Philadelphia","Field7":"PA","Field8":19107,"lat":39.9470215,"lon":-75.1612091},"geometry":{"type":"Point","coordinates":[-75.1612091,39.9470215]}},{"type":"Feature","properties":{"ID":17,"Name":"Moriarty's Restaurant and Irish Pub","Rating":"3.5","Num_Reviews":422,"Address":"1116 Walnut St","City":"Philadelphia","Field7":"PA","Field8":19107,"lat":39.94859,"lon":-75.15987},"geometry":{"type":"Point","coordinates":[-75.15987,39.94859]}},{"type":"Feature","properties":{"ID":18,"Name":"Stratus Lounge","Rating":"3","Num_Reviews":145,"Address":"433 Chestnut St","City":"Philadelphia","Field7":"PA","Field8":19106,"lat":39.94909848,"lon":-75.14907971},"geometry":{"type":"Point","coordinates":[-75.14907971,39.94909848]}},{"type":"Feature","properties":{"ID":19,"Name":"Sassafras Bar","Rating":"4","Num_Reviews":207,"Address":"48 S 2nd St","City":"Philadelphia","Field7":"PA","Field8":19106,"lat":39.948832,"lon":-75.144063},"geometry":{"type":"Point","coordinates":[-75.144063,39.948832]}},{"type":"Feature","properties":{"ID":20,"Name":"Rotten Ralph's","Rating":"2.5","Num_Reviews":122,"Address":"201 Chestnut St","City":"Philadelphia","Field7":"PA","Field8":19106,"lat":39.94843483,"lon":-75.14421858},"geometry":{"type":"Point","coordinates":[-75.14421858,39.94843483]}},{"type":"Feature","properties":{"ID":21,"Name":"The Lodge at Blue Cross RiverRink Winterfest","Rating":"4","Num_Reviews":43,"Address":"101 S Columbus Blvd","City":"Philadelphia","Field7":"PA","Field8":19106,"lat":39.9482668,"lon":-75.13992375},"geometry":{"type":"Point","coordinates":[-75.13992375,39.9482668]}},{"type":"Feature","properties":{"ID":22,"Name":"City Tap House","Rating":"3.5","Num_Reviews":500,"Address":"3925 Walnut St","City":"Philadelphia","Field7":"PA","Field8":19104,"lat":39.954153,"lon":-75.201846},"geometry":{"type":"Point","coordinates":[-75.201846,39.954153]}},{"type":"Feature","properties":{"ID":23,"Name":"Harvest Seasonal Grill & Wine Bar - Philadelphia","Rating":"3.5","Num_Reviews":207,"Address":"40th & Walnut St","City":"Philadelphia","Field7":"PA","Field8":19104,"lat":39.95414226,"lon":-75.2027187},"geometry":{"type":"Point","coordinates":[-75.2027187,39.95414226]}},{"type":"Feature","properties":{"ID":24,"Name":"1 Tippling Place","Rating":"4","Num_Reviews":194,"Address":"2006 Chestnut St","City":"Philadelphia","Field7":"PA","Field8":19103,"lat":39.951859,"lon":-75.173882},"geometry":{"type":"Point","coordinates":[-75.173882,39.951859]}},{"type":"Feature","properties":{"ID":25,"Name":"Tinto","Rating":"4","Num_Reviews":640,"Address":"114 S 20th St","City":"Philadelphia","Field7":"PA","Field8":19103,"lat":39.951432,"lon":-75.173648},"geometry":{"type":"Point","coordinates":[-75.173648,39.951432]}},{"type":"Feature","properties":{"ID":26,"Name":"The Bards","Rating":"3.5","Num_Reviews":150,"Address":"2013 Walnut St","City":"Philadelphia","Field7":"PA","Field8":19103,"lat":39.95082,"lon":-75.17424},"geometry":{"type":"Point","coordinates":[-75.17424,39.95082]}},{"type":"Feature","properties":{"ID":27,"Name":"Raven Lounge","Rating":"3.5","Num_Reviews":151,"Address":"1718 Sansom St","City":"Philadelphia","Field7":"PA","Field8":19103,"lat":39.950653,"lon":-75.169586},"geometry":{"type":"Point","coordinates":[-75.169586,39.950653]}},{"type":"Feature","properties":{"ID":28,"Name":"Continental Mid-town","Rating":"3.5","Num_Reviews":1051,"Address":"1801 Chesnut St","City":"Philadelphia","Field7":"PA","Field8":19103,"lat":39.9519043,"lon":-75.1704483},"geometry":{"type":"Point","coordinates":[-75.1704483,39.9519043]}},{"type":"Feature","properties":{"ID":29,"Name":"Oh Shea's Pub","Rating":"3.5","Num_Reviews":43,"Address":"1907 Sansom St","City":"Philadelphia","Field7":"PA","Field8":19103,"lat":39.95117538,"lon":-75.17233081},"geometry":{"type":"Point","coordinates":[-75.17233081,39.95117538]}},{"type":"Feature","properties":{"ID":30,"Name":"Devil's Alley Bar & Grille","Rating":"3.5","Num_Reviews":564,"Address":"1907 Chestnut St","City":"Philadelphia","Field7":"PA","Field8":19103,"lat":39.95211,"lon":-75.172203},"geometry":{"type":"Point","coordinates":[-75.172203,39.95211]}},{"type":"Feature","properties":{"ID":31,"Name":"Libert√© Lounge","Rating":"3.5","Num_Reviews":42,"Address":"120 S 17th St","City":"Philadelphia","Field7":"PA","Field8":19103,"lat":39.950802,"lon":-75.1690105},"geometry":{"type":"Point","coordinates":[-75.1690105,39.950802]}},{"type":"Feature","properties":{"ID":32,"Name":"McGillin's Olde Ale House","Rating":"4","Num_Reviews":580,"Address":"1310 Drury St","City":"Philadelphia","Field7":"PA","Field8":19107,"lat":39.950187,"lon":-75.162536},"geometry":{"type":"Point","coordinates":[-75.162536,39.950187]}},{"type":"Feature","properties":{"ID":33,"Name":"Continental Restaurant and Martini Bar","Rating":"3.5","Num_Reviews":479,"Address":"138 Market St","City":"Philadelphia","Field7":"PA","Field8":19106,"lat":39.949687,"lon":-75.143635},"geometry":{"type":"Point","coordinates":[-75.143635,39.949687]}},{"type":"Feature","properties":{"ID":34,"Name":"Landmark Americana","Rating":"3","Num_Reviews":214,"Address":"3333 Market St","City":"Philadelphia","Field7":"PA","Field8":19104,"lat":39.95611491,"lon":-75.19099936},"geometry":{"type":"Point","coordinates":[-75.19099936,39.95611491]}},{"type":"Feature","properties":{"ID":35,"Name":"Hop Sing Laundromat","Rating":"4","Num_Reviews":499,"Address":"1029 Race St","City":"Philadelphia","Field7":"PA","Field8":19107,"lat":39.9556427,"lon":-75.1568527},"geometry":{"type":"Point","coordinates":[-75.1568527,39.9556427]}},{"type":"Feature","properties":{"ID":36,"Name":"Zee Bar","Rating":"2.5","Num_Reviews":41,"Address":"100 Spring Garden St","City":"Philadelphia","Field7":"PA","Field8":19123,"lat":39.9595184,"lon":-75.1394272},"geometry":{"type":"Point","coordinates":[-75.1394272,39.9595184]}},{"type":"Feature","properties":{"ID":37,"Name":"St. Stephen's Green","Rating":"3.5","Num_Reviews":146,"Address":"1701 Green St","City":"Philadelphia","Field7":"PA","Field8":19130,"lat":39.9646285,"lon":-75.166045},"geometry":{"type":"Point","coordinates":[-75.166045,39.9646285]}},{"type":"Feature","properties":{"ID":38,"Name":"The Institute","Rating":"3.5","Num_Reviews":145,"Address":"549 N 12th St","City":"Philadelphia","Field7":"PA","Field8":19123,"lat":39.962848,"lon":-75.15731},"geometry":{"type":"Point","coordinates":[-75.15731,39.962848]}},{"type":"Feature","properties":{"ID":39,"Name":"Standard Tap","Rating":"4","Num_Reviews":592,"Address":"901 N 2nd St","City":"Philadelphia","Field7":"PA","Field8":19123,"lat":39.96414,"lon":-75.1404699},"geometry":{"type":"Point","coordinates":[-75.1404699,39.96414]}},{"type":"Feature","properties":{"ID":40,"Name":"Bourbon & Branch","Rating":"4","Num_Reviews":119,"Address":"705 N 2nd St","City":"Philadelphia","Field7":"PA","Field8":19123,"lat":39.96207,"lon":-75.14104},"geometry":{"type":"Point","coordinates":[-75.14104,39.96207]}},{"type":"Feature","properties":{"ID":41,"Name":"Jerry's Bar","Rating":"4","Num_Reviews":203,"Address":"129 Laurel St","City":"Philadelphia","Field7":"PA","Field8":19123,"lat":39.9651413,"lon":-75.1389236},"geometry":{"type":"Point","coordinates":[-75.1389236,39.9651413]}},{"type":"Feature","properties":{"ID":42,"Name":"Bridgid's","Rating":"4","Num_Reviews":197,"Address":"726 N 24th St","City":"Philadelphia","Field7":"PA","Field8":19130,"lat":39.968481,"lon":-75.176917},"geometry":{"type":"Point","coordinates":[-75.176917,39.968481]}},{"type":"Feature","properties":{"ID":43,"Name":"Fare","Rating":"3.5","Num_Reviews":280,"Address":"2028 Fairmount Ave","City":"Philadelphia","Field7":"PA","Field8":19130,"lat":39.967061,"lon":-75.171243},"geometry":{"type":"Point","coordinates":[-75.171243,39.967061]}},{"type":"Feature","properties":{"ID":44,"Name":"Frankford Hall","Rating":"4","Num_Reviews":647,"Address":"1210 Frankford Ave","City":"Philadelphia","Field7":"PA","Field8":19125,"lat":39.969539,"lon":-75.1346},"geometry":{"type":"Point","coordinates":[-75.1346,39.969539]}},{"type":"Feature","properties":{"ID":45,"Name":"Kings Oak","Rating":"4","Num_Reviews":59,"Address":"1031 Germantown Ave","City":"Philadelphia","Field7":"PA","Field8":19123,"lat":39.96628225,"lon":-75.13850883},"geometry":{"type":"Point","coordinates":[-75.13850883,39.96628225]}},{"type":"Feature","properties":{"ID":46,"Name":"Martha","Rating":"4.5","Num_Reviews":23,"Address":"2113 E York St","City":"Philadelphia","Field7":"PA","Field8":19125,"lat":39.98222,"lon":-75.12809},"geometry":{"type":"Point","coordinates":[-75.12809,39.98222]}},{"type":"Feature","properties":{"ID":47,"Name":"Falls Taproom","Rating":"3.5","Num_Reviews":186,"Address":"3749 Midvale Ave","City":"Philadelphia","Field7":"PA","Field8":19129,"lat":40.00922954,"lon":-75.1938631},"geometry":{"type":"Point","coordinates":[-75.1938631,40.00922954]}},{"type":"Feature","properties":{"ID":48,"Name":"Ugly Moose","Rating":"4","Num_Reviews":116,"Address":"443 Shurs Ln","City":"Philadelphia","Field7":"PA","Field8":19128,"lat":40.0254288,"lon":-75.2114563},"geometry":{"type":"Point","coordinates":[-75.2114563,40.0254288]}},{"type":"Feature","properties":{"ID":49,"Name":"Mermaid Inn","Rating":"3","Num_Reviews":14,"Address":"7673 Germantown Ave","City":"Philadelphia","Field7":"PA","Field8":19118,"lat":40.0670547,"lon":-75.196312},"geometry":{"type":"Point","coordinates":[-75.196312,40.0670547]}},{"type":"Feature","properties":{"ID":50,"Name":"Tavern on the Hill","Rating":"4","Num_Reviews":84,"Address":"8636 Germantown Ave","City":"Philadelphia","Field7":"PA","Field8":19118,"lat":40.0770874,"lon":-75.2087326},"geometry":{"type":"Point","coordinates":[-75.2087326,40.0770874]}}]}